,common_name,Project_full,RELEASE_LOCATION,Detections,Individuals,mean_lat,mean_lon,min_lat,max_lat,min_lon,max_lon
1,American eel,BDLSPG - Apoqnmatulti'k - Bras D'Or Lake,"Amaguadee's Pond, Bras d'Or Lake, Cape Breton",7,1,45.916931,-60.653694,-,-,-,-
2,American eel,BDLSPG - Apoqnmatulti'k - Bras D'Or Lake,"Bras d'Or Lake, Cape Breton",31,1,45.933283,-60.62895,-,-,-,-
3,American eel,BDLSPG - Apoqnmatulti'k - Bras D'Or Lake,"Outside John Pauls Pond, Bras d'Or Lake, Cape Breton",16,1,45.933283,-60.62895,-,-,-,-
4,American eel,BQEEL - Bay of Quinte Eel Tracking,"Bay of Quinte, Lake Ontario",113,2,44.150834,-77.265379,-,-,-,-
5,Atlantic cod,SBICOD - Cod Movements in the Northern Gulf,"Strait of Belle Ils., Gulf of  St. Lawrence",24,1,51.194118,-57.233651,-,-,-,-
6,Atlantic cod,SGS - OTN Canada Sable Island Grey Seal Bioprobes,East Scotian Shelf,267,4,44.93382921,-60.92319326,44.5631,45.1665,-61.5324,-60.5342
7,Atlantic cod,SGS - OTN Canada Sable Island Grey Seal Bioprobes,Southern St.Anns Bank,14404,41,46.00986597,-59.15837278,45.9976,46.0371,-59.1953,-59.1462
8,Atlantic cod,"SPI - Shippagan, NB: Cod tagging",Southern Gulf of St. Lawrence,48,2,47.87189125,-64.03341875,47.854,47.9971,-64.0716,-64.028
9,Atlantic halibut,HALIBT - Acoustic Array and Halibut Tagging,Scotian Shelf,417,2,44.35412566,-59.0620377,44.3539,44.3686,-59.1055,-59.0615
10,Atlantic halibut,MEHAL - Maine Atlantic Halibut Tagging,"Gulf of Maine, USA",94,3,44.437627,-67.39565,-,-,-,-
11,Atlantic mackerel,V2LNASTI - Mackerel tracking in the Northwest Arm,"Halifax, NS",9,1,44.536689,-63.460551,-,-,-,-
13,Atlantic salmon,BDK - Overwinter Bras d’Or Atlantic salmon populations,"Bras d'Or Lakes, Cape Breton",378,2,46.079643,-60.908239,-,-,-,-
14,Atlantic salmon,ESRF - Atlantic Salmon Offshore Tracking Project,Cascapedia River,10,1,48.306,-65.9422,-,-,-,-
15,Atlantic salmon,ESRF - Atlantic Salmon Offshore Tracking Project,LaHave River,12,1,44.534224,-64.712359,-,-,-,-
16,Atlantic salmon,ESRF - Atlantic Salmon Offshore Tracking Project,LeHave,41,7,44.534401,-64.712414,-,-,-,-
17,Atlantic salmon,ESRF - Atlantic Salmon Offshore Tracking Project,Morell River,89,2,46.362398,-62.704283,-,-,-,-
18,Atlantic salmon,ESRF - Atlantic Salmon Offshore Tracking Project,St. Mary's River,215,10,45.25585251,-62.06367065,45.2559,45.256,-62.0736,-62.0635
19,Atlantic salmon,ESRF - Atlantic Salmon Offshore Tracking Project,"West branch, St Marys river, Nova Scotia",124,3,45.255804,-62.063908,-,-,-,-
20,Atlantic salmon,ESRF - Atlantic Salmon Offshore Tracking Project,"Western Atlantic, Canada",497,17,44.534401,-64.712414,-,-,-,-
21,Atlantic salmon,KNE - NOAA Kennebec Salmon Tracking,"Kennebec River, Maine, USA",15,1,44.531632,-69.642214,-,-,-,-
22,Atlantic salmon,MARSS - Maritimes Region Atlantic salmon marine survival and migration,"East branch, St Marys river, Nova Scotia",89,8,45.255757,-62.073002,-,-,-,-
23,Atlantic salmon,"NARR - Characterizing the behavior and survival of age 1 hatchery stocked smolts in the Narraguagus River, Maine U.S.A.","Milbridge, Narraguagus River, Maine U.S.A.",11,2,44.536181,-67.867763,-,-,-,-
24,Atlantic salmon,PBN - NOAA Penobscot Salmon Tracking,"Penobscot River, Maine, USA",156,6,44.81988,-68.718798,-,-,-,-
25,Atlantic salmon,PBSM_QRPT - Quoddy Region Salmon Tracking,"Magaguadavic Basin, St. George, NB",36,3,45.12778889,-66.82511222,45.1265,45.1358,-66.8252,-66.8243
26,Atlantic salmon,PBU - USGS: Salmon tagging,"Bucksport, Maine, USA.",290,22,44.570523,-68.793599,-,-,-,-
27,Atlantic salmon,QSLR - St. Lawrence River Fish Monitoring,Gulf of St. Lawrence (estimate),38,4,48.580941,-64.203323,-,-,-,-
28,Atlantic salmon,TNGS - Tobique Narrows Generation Station efficiency,"Tobique River, NB",6,2,45.983415,-66.718058,-,-,-,-
29,Atlantic salmon,UNBMIR - UNB Miramichi River,"Miramichi River, NB",34,1,46.95677,-65.58655,-,-,-,-
30,Atlantic salmon,V2LCBHNP - Cape Breton Highlands National Park salmon tracking,Cape Breton Highlands,447,7,46.65998,-60.39962,-,-,-,-
31,Atlantic salmon,"V2LNSSA - Nova Scotia Salmon Association, Sheet Harbour","West River, Sheet Harbour,NS",37,6,44.95854449,-62.61781892,44.9585,44.9586,-62.6178,-62.6178
32,Atlantis sturgeon,QSLR - St. Lawrence River Fish Monitoring,Gulf of St. Lawrence (estimate),9,1,48.580941,-64.203323,-,-,-,-
33,Blue shark,MFSAR - Shark Spatial Ecology and life history in NL waters,"Conception Bay 1, NL",128,1,47.45967,-53.121317,-,-,-,-
34,Blue shark,MFSAR - Shark Spatial Ecology and life history in NL waters,"Conception Bay 2, NL",12,1,47.49826667,-53.1481,-,-,-,-
35,Blue shark,MFSAR - Shark Spatial Ecology and life history in NL waters,"St. Johns, NL",13,1,47.589795,-52.624955,-,-,-,-
36,Blue shark,MFSAR - Shark Spatial Ecology and life history in NL waters,"St. Mary's Bay, NL",32,1,46.9065,-53.76555,-,-,-,-
37,Blue shark,NSBS - OTN NS Blue Shark Tracking,"Halifax, NS",424,13,44.23497,-63.24841,-,-,-,-
38,Bluefin tuna,BFTTAG - Bluefin tuna high res multi-beam sonar and tagging,"PEI, Gulf of St. Lawrence",77,12,46.612852,-62.157012,-,-,-,-
39,Bluefin tuna,DFOBFT - Long-term monitoring of Atlantic Bluefin tuna and Swordfish,"Port Hood, NS",219,12,45.92569,-61.64994,-,-,-,-
40,Bluefin tuna,TAG - Tag-A-Giant Foundation: Bluefin Tuna Tracking,North Carolina shelf by Hatteras,168,2,35.460449,-75.084143,-,-,-,-
41,Bluefin tuna,TAG - Tag-A-Giant Foundation: Bluefin Tuna Tracking,Northumberland Straight,74,4,46.053076,-61.907533,-,-,-,-
42,Bluefin tuna,TAG - Tag-A-Giant Foundation: Bluefin Tuna Tracking,"Northumberland Straight and St. Georges Bay, NS",645,56,46.053076,-61.907533,-,-,-,-
43,Grey seal,GSFP - Grey seal foraging pressure,Gulf of St. Lawrence,6,2,47.780097,-61.483532,-,-,-,-
44,Grey seal,GSFP - Grey seal foraging pressure,Scotian Shelf,38,2,43.9308333,-59.9177777,-,-,-,-
45,Grey seal,RISME - Pinniped Movement in Rhode Island Waters,"Rhode Island, USA",10,1,41.149202,-71.225023,-,-,-,-
46,Leatherback turtle,JBLB - Juno Beach Leatherback Tagging,"Juno beach, Florida, USA",69,1,26.85761,-79.897383,-,-,-,-
47,Leatherback turtle,"MIGRAMAR.LBTPCR - Leatherback Turtle Tracking in Pacuare Wildlife Reserve, CR","Pacuare Wildlife Reserve, Costa Rica",41,1,10.18333,-83.243641,-,-,-,-
48,Porbeagle shark,JPBS - DFO: Porbeagle and Blue Sharks,Emerald Basin,16,1,44.402158,-62.801851,-,-,-,-
49,Porbeagle shark,JPBS - DFO: Porbeagle and Blue Sharks,Georges Bank,56,3,41.21,-67.38108,-,-,-,-
50,Shortfin mako,RICSS - RIDEM DMF Coastal Shark Tagging Study,"Block Island, New England, USA",29,1,41.081236,-71.576333,-,-,-,-
51,Snow crab,ZSC - Scotian Shelf Snow Crab Tagging,Scotian Shelf,371,2,46.655883,-61.26395,-,-,-,-
52,White shark,CCOCE - Shelf-associated movements and migration of sharks in the Western North Atlantic Ocean,"Hilton Head, South Carolina",9,1,32.00025,-80.59483333,-,-,-,-
53,White shark,CCOCE - Shelf-associated movements and migration of sharks in the Western North Atlantic Ocean,"Lunenburg, Nova Scotia",25,2,44.22783333,-64.28468333,-,-,-,-
54,White shark,CCOCE - Shelf-associated movements and migration of sharks in the Western North Atlantic Ocean,NE Atlantic,123,10,44.22537617,-64.2826131,44.2249,44.2257,-64.2863,-64.2774
55,White shark,CCOCE - Shelf-associated movements and migration of sharks in the Western North Atlantic Ocean,"Scatarie Island, Cape Breton, Nova Scotia",37,1,46.03645,-59.69378333,-,-,-,-
56,White shark,CCOCE - Shelf-associated movements and migration of sharks in the Western North Atlantic Ocean,"W. Ironbound I., Nova Scotia",64,4,44.22818411,-64.28176901,44.2257,44.2366,-64.2863,-64.2714
57,White shark,HMSWEA - Offshore Wind Telemetry,"Nantucket, USA",51,3,39.543908,-73.857779,-,-,-,-
58,White shark,HMSWEA - Offshore Wind Telemetry,"Southern New England, USA",3,1,39.5439,-73.85777,-,-,-,-
59,White shark,MSRPWS - Massachusetts White Shark Research Program,"Cape cod, MA",940,47,41.34566,-69.618619,-,-,-,-
60,White shark,NYSHARKS - New York Juvenile White Shark Study,"Long Island, NY, USA",39,5,40.09488,-73.2486,-,-,-,-
61,White shark,SBUSOMAS01 - SBU Coastal New York Bight Acoustic Network,"Long Island, USA",3,1,40.090717,-73.308458,-,-,-,-
62,White shark,V2LWSAMP - White Shark Acoustic Monitoring Program,"Kejimkujik Park, NS",6,1,43.798987,-64.772998,-,-,-,-
63,White shark,VMLPPWS - Grey seals and white sharks in Atlantic Canadian waters,"Magdalen Islands, Gulf of St. Lawrence",4,1,47.88175,-61.380374,-,-,-,-
